{"pagination":{"pageCount":7,"total":127},"results":[{"id":563,"name":"Gym Austerlitz","compte":"1","isSubscribed":false,"urls":{"long":"/salle/563,gym-austerlitz,club-de-fitness,lyon,69004,fr"},"searchPicture":{"url":"https://datas.masalledesport.com/prod/null"},"type":{"id":1,"name":"Club de fitness"},"address":{"street":"9 rue d'Austerlitz","zipCode":"69004","city":"LYON","country":{"code":"FR"}},"location":{"lat":45.775668,"lng":4.834261},"description":{},"pass":{"key":"1Seance","shortDescription":"Recevez 1 séance d'essai GRATUITE","description":"Recevez votre séance d'essai GRATUITE par email !","free":true},"reviews":{"count":0,"avg":null},"openingHours":{},"products":[],"distance":4689,"services":[],"comforts":[],"equipments":[],"activities":[],"access":{}},{"id":4155,"name":"Egerie Centre Power Plate","compte":"1","isSubscribed":false,"urls":{"long":"/salle/4155,egerie-centre-power-plate,salle-de-gym-bien-etre,lyon,69006,fr"},"searchPicture":{"url":"https://datas.masalledesport.com/prod/null"},"type":{"id":4,"name":"Salle de gym / bien être"},"address":{"street":"28 boulevard des Brotteaux","zipCode":"69006","city":"LYON","country":{"code":"FR"}},"location":{"lat":45.767999,"lng":4.856988},"description":{},"pass":{"key":"1Seance","shortDescription":"Recevez 1 séance d'essai GRATUITE","description":"Recevez votre séance d'essai GRATUITE par email !","free":true},"reviews":{"count":0,"avg":null},"openingHours":{},"products":[],"distance":4728,"services":[],"comforts":[],"equipments":[],"activities":[],"access":{}},{"id":2716,"name":"Shape Dance","compte":"1","isSubscribed":false,"urls":{"long":"/salle/2716,shape-dance,ecole-de-danse,lyon,69006,fr"},"searchPicture":{"url":"https://datas.masalledesport.com/prod/null"},"type":{"id":7,"name":"Ecole de danse"},"address":{"street":"71 rue Bellecombe","zipCode":"69006","city":"LYON","country":{"code":"FR"}},"location":{"lat":45.765089,"lng":4.863606},"description":{},"pass":{"key":"1Seance","shortDescription":"Recevez 1 séance d'essai GRATUITE","description":"Recevez votre séance d'essai GRATUITE par email !","free":true},"reviews":{"count":0,"avg":null},"openingHours":{},"products":[],"distance":4762,"services":[],"comforts":[],"equipments":[],"activities":[],"access":{}},{"id":9884,"name":"ORION.CS","compte":"1","isSubscribed":false,"urls":{"long":"/salle/9884,orioncs,coach-sportif,lyon,69006,fr"},"searchPicture":{"url":"https://datas.masalledesport.com/prod/null"},"type":{"id":8,"name":"Coach sportif"},"address":{"street":"22 rue Germain","zipCode":"69006","city":"LYON","country":{"code":"FR"}},"location":{"lat":45.7649739,"lng":4.864498700000013},"description":{},"pass":{"key":"1Seance","shortDescription":"Recevez 1 séance d'essai GRATUITE","description":"Recevez votre séance d'essai GRATUITE par email !","free":true},"reviews":{"count":0,"avg":null},"openingHours":{},"products":[],"distance":4783,"services":[],"comforts":[],"equipments":[],"activities":[],"access":{}},{"id":6853,"name":"Ingrid Coach Sportif","compte":"1","isSubscribed":false,"urls":{"long":"/salle/6853,ingrid-coach-sportif,coach-sportif,brindas,69126,fr"},"searchPicture":{"url":"https://datas.masalledesport.com/prod/null"},"type":{"id":8,"name":"Coach sportif"},"address":{"street":"85 route du Bouleau","zipCode":"69126","city":"BRINDAS","country":{"code":"FR"}},"location":{"lat":45.7163438,"lng":4.7015223},"description":{},"pass":{"key":"1Seance","shortDescription":"Recevez 1 séance d'essai GRATUITE","description":"Recevez votre séance d'essai GRATUITE par email !","free":true},"reviews":{"count":0,"avg":null},"openingHours":{},"products":[],"distance":4789,"services":[],"comforts":[],"equipments":[],"activities":[],"access":{}},{"id":6782,"name":"CrossFit Lyon","compte":"1","isSubscribed":false,"urls":{"long":"/salle/6782,crossfit-lyon,box-crossfit,lyon,69003,fr"},"searchPicture":{"url":"https://datas.masalledesport.com/prod/null"},"type":{"id":10,"name":"Box Crossfit"},"address":{"street":"3 place Louise","zipCode":"69003","city":"LYON","country":{"code":"FR"}},"location":{"lat":45.751037,"lng":4.8850428},"description":{},"pass":{"key":"1Seance","shortDescription":"Recevez 1 séance d'essai GRATUITE","description":"Recevez votre séance d'essai GRATUITE par email !","free":true},"reviews":{"count":0,"avg":null},"openingHours":{},"products":[],"distance":4882,"services":[],"comforts":[],"equipments":[],"activities":[],"access":{}},{"id":592,"name":"Majestic Body","compte":"1","isSubscribed":false,"urls":{"long":"/salle/592,majestic-body,club-de-fitness,venissieux,69200,fr"},"searchPicture":{"url":"https://datas.masalledesport.com/prod/null"},"type":{"id":1,"name":"Club de fitness"},"address":{"street":"1 Rue Johann Strauss","zipCode":"69200","city":"VÉNISSIEUX","country":{"code":"FR"}},"location":{"lat":45.691094,"lng":4.89811},"description":{},"pass":{"key":"1Seance","shortDescription":"Recevez 1 séance d'essai GRATUITE","description":"Recevez votre séance d'essai GRATUITE par email !","free":true},"reviews":{"count":0,"avg":null},"openingHours":{},"products":[],"distance":4914,"services":[],"comforts":[],"equipments":[],"activities":[],"access":{}}]}