[{"nom":"Centre hospitalier  (Carcassonne)","latitude":"43.194439","longitude":"2.343412","lien":"\/annuaire-etablissement\/centre-hospitalier-carcassonne,4090","indicateur_qualite":5,"avis_patients":2,"nb_avis_patients":"32","capacite":496,"type_structure":"Centre Hospitalier","depend_de":"\/annuaire-siege\/centre-hospitalier,245","telephone":"04 68 24 24 24","site_internet":"","adresse":"1060 chemin de la madeleine CS40001 11010 Carcassonne"},{"nom":"Centre hospitalier MCO  (Narbonne)","latitude":"43.180523","longitude":"3.000527","lien":"\/annuaire-etablissement\/centre-hospitalier-mco-narbonne,4077","indicateur_qualite":5,"avis_patients":2,"nb_avis_patients":"34","capacite":279,"type_structure":"Centre Hospitalier","depend_de":"\/annuaire-siege\/centre-hospitalier,232","telephone":"04 68 42 60 00","site_internet":"http:\/\/www.ch-narbonne.fr","adresse":"Boulevard Dr Lacroix BP 824 11108 Narbonne"},{"nom":"Centre hospitalier ' Jean-Pierre CASSABEL ' (Castelnaudary)","latitude":"43.315117","longitude":"1.961932","lien":"\/annuaire-etablissement\/centre-hospitalier---jean-pierre-cassabel---castelnaudary,4088","indicateur_qualite":3,"avis_patients":0,"nb_avis_patients":0,"capacite":200,"type_structure":"Centre Hospitalier","depend_de":"\/annuaire-siege\/centre-hospitalier-jean-pierre-cassabel,243","telephone":"04 68 94 56 56","site_internet":"http:\/\/www.ch-castelnaudary.fr","adresse":"19 avenue  Monseigneur de Langle  11400 Castelnaudary"},{"nom":"EHPAD USLD PECH DALCY  (NARBONNNE)","latitude":"43.184277","longitude":"3.003078","lien":"\/annuaire-etablissement\/ehpad-usld-pech-dalcy-narbonnne,8355","indicateur_qualite":5,"avis_patients":0,"nb_avis_patients":"0","capacite":136,"type_structure":"Etablissement de Soins Longue Dur\u00e9e","depend_de":"\/annuaire-siege\/centre-hospitalier,232","telephone":"04 68 42 66 00","site_internet":"http:\/\/www.ch-narbonne.fr","adresse":"Rue Marcelin Boule CENTRE HOSPITALIER -  BP 824 - 11108 NARBONNE Cedex 11100 NARBONNNE"},{"nom":"Centre Hospitalier de Limoux  (Limoux)","latitude":"43.055771","longitude":"2.220193","lien":"\/annuaire-etablissement\/centre-hospitalier-de-limoux-limoux,4085","indicateur_qualite":5,"avis_patients":0,"nb_avis_patients":"0","capacite":120,"type_structure":"Centre Hospitalier","depend_de":"\/annuaire-siege\/centre-hospitalier-limoux-quillan,240","telephone":"04 68 74 67 04","site_internet":"http:\/\/www.hopital-limoux-quillan.fr","adresse":"17, rue Madeleine Bres  11300 Limoux"},{"nom":"CENTRE HOSPITALIER FRANCIS VALS (Port-la-Nouvelle)","latitude":"43.021343","longitude":"3.043916","lien":"\/annuaire-etablissement\/centre-hospitalier-francis-vals-port-la-nouvelle,4080","indicateur_qualite":4,"avis_patients":0,"nb_avis_patients":"0","capacite":110,"type_structure":"Centre Hospitalier","depend_de":"\/annuaire-siege\/centre-hospitalier-francis-vals,235","telephone":"04 68 40 42 00","site_internet":"","adresse":"BP 71 150 Rue Fr\u00e9d\u00e9ric de Girard 11210 Port-la-Nouvelle"},{"nom":"Centre hospitalier  (L\u00e9zignan-Corbi\u00e8res)","latitude":"43.194126","longitude":"2.758731","lien":"\/annuaire-etablissement\/centre-hospitalier-lezignan-corbieres,4079","indicateur_qualite":4,"avis_patients":0,"nb_avis_patients":"0","capacite":108,"type_structure":"Centre Hospitalier","depend_de":"\/annuaire-siege\/centre-hospitalier,234","telephone":"04 68 27 79 00","site_internet":"","adresse":"Boulevard Pasteur BP 204 11202 L\u00e9zignan-Corbi\u00e8res"},{"nom":"Clinique psychiatrique adultes Sainte Therese (Narbonne)","latitude":"43.185146","longitude":"2.996645","lien":"\/annuaire-etablissement\/clinique-psychiatrique-adultes-sainte-therese-narbonne,301","indicateur_qualite":5,"avis_patients":0,"nb_avis_patients":"0","capacite":54,"type_structure":"Centre Hospitalier","depend_de":"\/annuaire-siege\/centre-hospitalier,232","telephone":"04 68 42 66 20","site_internet":"http:\/\/www.ch-narbonne.fr","adresse":"1, rue Simon CASTAN BP 824 11108 Narbonne"},{"nom":"Centre Hospitalier de Quillan  (Quillan)","latitude":"42.880650","longitude":"2.185547","lien":"\/annuaire-etablissement\/centre-hospitalier-de-quillan-quillan,3217","indicateur_qualite":5,"avis_patients":2,"nb_avis_patients":"1","capacite":27,"type_structure":"Centre Hospitalier","depend_de":"\/annuaire-siege\/centre-hospitalier-limoux-quillan,240","telephone":"04 68 20 85 00","site_internet":"http:\/\/www.hopital-limoux-quillan.fr","adresse":"rue du Dr Roueylou  11500 Quillan"},{"nom":"H\u00f4pital de jour adultes  (Narbonne)","latitude":"43.185966","longitude":"2.996833","lien":"\/annuaire-etablissement\/hopital-de-jour-adultes-narbonne,299","indicateur_qualite":5,"avis_patients":0,"nb_avis_patients":"0","capacite":20,"type_structure":"Centre Hospitalier","depend_de":"\/annuaire-siege\/centre-hospitalier,232","telephone":"04 68 42 68 30","site_internet":"http:\/\/www.ch-narbonne.fr","adresse":"11 Rue Mascara BP 824 11108 Narbonne"},{"nom":"H\u00f4pital de jour pour enfants ELISE SAUNIER (NARBONNE)","latitude":"43.179764","longitude":"2.997984","lien":"\/annuaire-etablissement\/hopital-de-jour-pour-enfants-elise-saunier-narbonne,7952","indicateur_qualite":5,"avis_patients":0,"nb_avis_patients":"0","capacite":8,"type_structure":"Centre Hospitalier","depend_de":"\/annuaire-siege\/centre-hospitalier,232","telephone":"04 68 42 54 40","site_internet":"http:\/\/www.ch-narbonne.fr","adresse":"10, rue Henri DUNANT BP 824 11108 NARBONNE"},{"nom":"H\u00f4pital de jour pour enfants Brossolette (Narbonne)","latitude":"43.181591","longitude":"2.979999","lien":"\/annuaire-etablissement\/hopital-de-jour-pour-enfants-brossolette-narbonne,2925","indicateur_qualite":5,"avis_patients":0,"nb_avis_patients":"0","capacite":8,"type_structure":"Centre Hospitalier","depend_de":"\/annuaire-siege\/centre-hospitalier,232","telephone":"04 68 42 65 80","site_internet":"http:\/\/www.ch-narbonne.fr","adresse":"Avenue de Bordeaux BP 824 11108 Narbonne"}]