[{"nom":"Centre hospitalier  (Chaumont)","latitude":"48.122269","longitude":"5.139664","lien":"\/annuaire-etablissement\/centre-hospitalier-chaumont,5099","indicateur_qualite":4,"avis_patients":2,"nb_avis_patients":"19","capacite":342,"type_structure":"Centre Hospitalier","depend_de":"\/annuaire-siege\/centre-hospitalier,1325","telephone":"03 25 30 70 30","site_internet":"http:\/\/www.ch-chaumont.fr\/","adresse":"2, rue Jeanne d'Arc CS 10514 52014 Chaumont"},{"nom":"Centre hospitalier  (Bourbonne-les-Bains)","latitude":"47.954266","longitude":"5.745476","lien":"\/annuaire-etablissement\/centre-hospitalier-bourbonne-les-bains,5111","indicateur_qualite":5,"avis_patients":3,"nb_avis_patients":"3","capacite":204,"type_structure":"H\u00f4pital local","depend_de":"\/annuaire-siege\/centre-hospitalier,1337","telephone":"03 25 87 70 00","site_internet":"","adresse":"1, rue Terrail Lemoine BP 57 52400 Bourbonne-les-Bains"},{"nom":"H\u00f4pital de Joinville (Joinville)","latitude":"48.438572","longitude":"5.136747","lien":"\/annuaire-etablissement\/hopital-de-joinville-joinville,5110","indicateur_qualite":4,"avis_patients":0,"nb_avis_patients":"0","capacite":185,"type_structure":"H\u00f4pital local","depend_de":"\/annuaire-siege\/hopital-de-joinville,1336","telephone":"03 25 04 30 30","site_internet":"http:\/\/www.hl-joinville.fr","adresse":"34 rue de la Piti\u00e9 BP 7 52301 Joinville"},{"nom":"H\u00f4pital Saint-Charles  (Wassy)","latitude":"48.499424","longitude":"4.951958","lien":"\/annuaire-etablissement\/hopital-saint-charles-wassy,5103","indicateur_qualite":4,"avis_patients":0,"nb_avis_patients":"0","capacite":185,"type_structure":"H\u00f4pital local","depend_de":"\/annuaire-siege\/hopital-saint-charles,1329","telephone":"03 25 55 25 55","site_internet":"http:\/\/www.hl-wassy.fr","adresse":"4, rue Charles de Gaulle  52130 Wassy"},{"nom":"Centre hospitalier Saint Dizier (Saint-Dizier)","latitude":"48.656075","longitude":"4.964410","lien":"\/annuaire-etablissement\/centre-hospitalier-saint-dizier-saint-dizier,5100","indicateur_qualite":5,"avis_patients":2,"nb_avis_patients":"19","capacite":175,"type_structure":"Centre Hospitalier","depend_de":"\/annuaire-siege\/centre-hospitalier-genevieve-de-gaulle-anthonioz,1326","telephone":"03 25 56 84 84","site_internet":"http:\/\/www.ch-saintdizier.fr","adresse":"Rue Albert Schweitzer  52115 Saint-Dizier"},{"nom":"H\u00f4pital local - EHPAD R\u00e9sidence des Ain\u00e9s (Montier-en-Der)","latitude":"48.476860","longitude":"4.775352","lien":"\/annuaire-etablissement\/hopital-local-ehpad-residence-des-aines-montier-en-der,5107","indicateur_qualite":5,"avis_patients":0,"nb_avis_patients":"0","capacite":152,"type_structure":"H\u00f4pital local","depend_de":"\/annuaire-siege\/hopital-local-ehpad-residence-des-aines,1333","telephone":"03 25 04 22 20","site_internet":"http:\/\/www.hopital-montier.com","adresse":"26 rue Audiffred  52220 Montier-en-Der"},{"nom":"Centre hospitalier  (Langres)","latitude":"47.866570","longitude":"5.336535","lien":"\/annuaire-etablissement\/centre-hospitalier-langres,5104","indicateur_qualite":5,"avis_patients":4,"nb_avis_patients":"3","capacite":131,"type_structure":"Centre Hospitalier","depend_de":"\/annuaire-siege\/centre-hospitalier,1330","telephone":"03 25 87 88 88","site_internet":"","adresse":"10, rue de la Charit\u00e9 BP 190 52206 Langres"}]