[{"nom":"Site du Lanot  (Dax)","latitude":"43.692120","longitude":"-1.076813","lien":"\/annuaire-etablissement\/site-du-lanot-dax,8046","indicateur_qualite":4,"avis_patients":3,"nb_avis_patients":"3","capacite":425,"type_structure":"Centre Hospitalier","depend_de":"\/annuaire-siege\/centre-hospitalier-de-dax-cote-d-argent,959","telephone":"","site_internet":"http:\/\/www.ch-dax.fr","adresse":"Route des roches  40107 Dax"},{"nom":"Site de Layn\u00e9  (Mont-de-Marsan)","latitude":"43.894760","longitude":"-0.486285","lien":"\/annuaire-etablissement\/site-de-layne-mont-de-marsan,4747","indicateur_qualite":5,"avis_patients":2,"nb_avis_patients":"46","capacite":413,"type_structure":"Centre Hospitalier","depend_de":"\/annuaire-siege\/centre-hospitalier-de-mont-de-marsan,958","telephone":"05 58 05 10 10","site_internet":"http:\/\/www.ch-mt-marsan.fr","adresse":"avenue Pierre de Coubertin  40024 Mont-de-Marsan"},{"nom":"Site de Sainte Anne  (Mont-de-Marsan)","latitude":"43.901402","longitude":"-0.500144","lien":"\/annuaire-etablissement\/site-de-sainte-anne-mont-de-marsan,1124","indicateur_qualite":5,"avis_patients":2,"nb_avis_patients":"15","capacite":348,"type_structure":"Centre Hospitalier","depend_de":"\/annuaire-siege\/centre-hospitalier-de-mont-de-marsan,958","telephone":"05 58 05 10 10","site_internet":"http:\/\/www.ch-mt-marsan.fr","adresse":"782  Av De Noneres  40024 Mont-de-Marsan"},{"nom":"Centre Hospitalier de Dax-C\u00f4te d'Argent  (Dax)","latitude":"43.711601","longitude":"-1.043225","lien":"\/annuaire-etablissement\/centre-hospitalier-de-dax-cote-d-argent-dax,4748","indicateur_qualite":4,"avis_patients":3,"nb_avis_patients":"14","capacite":316,"type_structure":"Centre Hospitalier","depend_de":"\/annuaire-siege\/centre-hospitalier-de-dax-cote-d-argent,959","telephone":"05 58 91 48 48","site_internet":"http:\/\/www.ch-dax.fr","adresse":"Boulevard Yves du Manoir BP 323 40107 Dax"},{"nom":"Site de Nouvielle  (Bretagne-de-Marsan)","latitude":"43.838314","longitude":"-0.472085","lien":"\/annuaire-etablissement\/site-de-nouvielle-bretagne-de-marsan,1123","indicateur_qualite":5,"avis_patients":3,"nb_avis_patients":"10","capacite":205,"type_structure":"Centre Hospitalier","depend_de":"\/annuaire-siege\/centre-hospitalier-de-mont-de-marsan,958","telephone":"05 58 05 10 10","site_internet":"http:\/\/www.ch-mt-marsan.fr","adresse":"Route De Grenade  40280 Bretagne-de-Marsan"},{"nom":"Etablissement de sant\u00e9 INSTITUT HELIO MARIN DE LABENNE (LABENNE)","latitude":"43.592434","longitude":"-1.449419","lien":"\/annuaire-etablissement\/etablissement-de-sante-institut-helio-marin-de-labenne-labenne,7020","indicateur_qualite":0,"avis_patients":0,"nb_avis_patients":0,"capacite":192,"type_structure":"Etablissement de Convalescence et de Repos","depend_de":"\/annuaire-siege\/association-ages.helio-avenir-geronto-sante-point-helio,3112","telephone":"05 59 45 45 86","site_internet":"http:\/\/www.helio-labenne.asso.fr","adresse":"315, route OCEANE  40530 LABENNE"},{"nom":"P\u00f4le G\u00e9riatrique du Pays des Sources  (Morcenx)","latitude":"44.042191","longitude":"-0.925191","lien":"\/annuaire-etablissement\/pole-geriatrique-du-pays-des-sources-morcenx,4749","indicateur_qualite":0,"avis_patients":0,"nb_avis_patients":0,"capacite":168,"type_structure":"Etablissement de Soins Longue Dur\u00e9e","depend_de":"\/annuaire-siege\/pole-geriatrique-du-pays-des-sources,960","telephone":"05 58 04 18 04","site_internet":"","adresse":"260 chemin de Naz\u00e8res BP 10013 40110 Morcenx"},{"nom":"Centre hospitalier  (Saint-Sever)","latitude":"43.756451","longitude":"-0.571461","lien":"\/annuaire-etablissement\/centre-hospitalier-saint-sever,4765","indicateur_qualite":5,"avis_patients":0,"nb_avis_patients":"0","capacite":85,"type_structure":"Centre Hospitalier","depend_de":"\/annuaire-siege\/centre-hospitalier,976","telephone":"05 58 76 45 45","site_internet":"http:\/\/www.hopital-saint-sever.fr","adresse":"3, rue de la Guillerie  40500 Saint-Sever"},{"nom":"H\u00f4pital thermal  (Dax)","latitude":"43.705585","longitude":"-1.049019","lien":"\/annuaire-etablissement\/hopital-thermal-dax,8048","indicateur_qualite":4,"avis_patients":4,"nb_avis_patients":"7","capacite":74,"type_structure":"Centre Hospitalier","depend_de":"\/annuaire-siege\/centre-hospitalier-de-dax-cote-d-argent,959","telephone":"","site_internet":"http:\/\/www.ch-dax.fr","adresse":"rue Labadie  40107 Dax"},{"nom":"CENTRE HOSPITALIER  (SAINT-SEVER)","latitude":"43.756847","longitude":"-0.571659","lien":"\/annuaire-etablissement\/centre-hospitalier-saint-sever,8344","indicateur_qualite":5,"avis_patients":0,"nb_avis_patients":"0","capacite":32,"type_structure":"Etablissement de Soins Longue Dur\u00e9e","depend_de":"\/annuaire-siege\/centre-hospitalier,976","telephone":"05 58 76 45 45","site_internet":"http:\/\/www.hopital-saint-sever.fr","adresse":"3, Rue de la Guillerie  40500 SAINT-SEVER"}]