[{"nom":"Centre Hospitalier de Blois  (BLOIS)","latitude":"47.599991","longitude":"1.341788","lien":"\/annuaire-etablissement\/centre-hospitalier-de-blois-blois,8705","indicateur_qualite":4,"avis_patients":2,"nb_avis_patients":"28","capacite":598,"type_structure":"Centre Hospitalier","depend_de":"\/annuaire-siege\/centre-hospitalier-de-blois-chb,978","telephone":"02 54 55 66 33","site_internet":"'http:\/\/www.ch-blois.fr'","adresse":"Mail Pierre Charlot  41016 BLOIS"},{"nom":"Centre hospitalier  (Romorantin-Lanthenay)","latitude":"47.357903","longitude":"1.733929","lien":"\/annuaire-etablissement\/centre-hospitalier-romorantin-lanthenay,4777","indicateur_qualite":5,"avis_patients":3,"nb_avis_patients":"13","capacite":306,"type_structure":"Centre Hospitalier","depend_de":"\/annuaire-siege\/centre-hospitalier,988","telephone":"02 54 88 33 00","site_internet":"http:\/\/www.ch-romorantin.fr","adresse":"96, rue des Capucins BP 148 41206 Romorantin-Lanthenay"},{"nom":"H\u00f4pital local Antoine Moreau (Montoire-sur-le-Loir)","latitude":"47.752056","longitude":"0.863345","lien":"\/annuaire-etablissement\/hopital-local-antoine-moreau-montoire-sur-le-loir,4796","indicateur_qualite":5,"avis_patients":0,"nb_avis_patients":"0","capacite":173,"type_structure":"H\u00f4pital local","depend_de":"\/annuaire-siege\/hopital-local-antoine-moreau,1008","telephone":"02 54 86 50 00","site_internet":"","adresse":"13, rue Saint-Laurent  41800 Montoire-sur-le-Loir"},{"nom":"centre hospitalier  (montrichard)","latitude":"47.347290","longitude":"1.178721","lien":"\/annuaire-etablissement\/centre-hospitalier-montrichard,6717","indicateur_qualite":4,"avis_patients":0,"nb_avis_patients":"0","capacite":152,"type_structure":"H\u00f4pital local","depend_de":"\/annuaire-siege\/centre-hospitalier-de-montrichard,4723","telephone":"02 54 75 70 00","site_internet":"","adresse":"14 rue des bois BP 30049 41406 montrichard"},{"nom":"Centre hospitalier  (Saint-Aignan)","latitude":"47.261215","longitude":"1.346513","lien":"\/annuaire-etablissement\/centre-hospitalier-saint-aignan,4770","indicateur_qualite":4,"avis_patients":0,"nb_avis_patients":"0","capacite":151,"type_structure":"H\u00f4pital local","depend_de":"\/annuaire-siege\/centre-hospitalier,981","telephone":"02 54 71 20 00","site_internet":"","adresse":"BP 82 - 1301 rue de la For\u00eat  41110 Saint-Aignan"},{"nom":"Centre hospitalier  (Vend\u00f4me)","latitude":"47.794228","longitude":"1.063514","lien":"\/annuaire-etablissement\/centre-hospitalier-vendome,4769","indicateur_qualite":5,"avis_patients":0,"nb_avis_patients":"0","capacite":150,"type_structure":"Centre Hospitalier","depend_de":"\/annuaire-siege\/centre-hospitalier,980","telephone":"02 54 23 33 33","site_internet":"http:\/\/www.ch-vendome.fr","adresse":"98, rue Poterie BP 30108 41106 Vend\u00f4me"},{"nom":"CENTRE HOSPITALIER  (Selles-sur-Cher)","latitude":"47.275497","longitude":"1.554149","lien":"\/annuaire-etablissement\/centre-hospitalier-selles-sur-cher,4771","indicateur_qualite":5,"avis_patients":0,"nb_avis_patients":"0","capacite":99,"type_structure":"H\u00f4pital local","depend_de":"\/annuaire-siege\/centre-hospitalier,982","telephone":"02 54 97 42 35","site_internet":"","adresse":"place de la Paix BP 1 41130 Selles-sur-Cher"},{"nom":"Etablissement de SSR de La M\u00e9naudi\u00e8re Groupe MGEN (Montrichard)","latitude":"47.332962","longitude":"1.132788","lien":"\/annuaire-etablissement\/etablissement-de-ssr-de-la-menaudiere-groupe-mgen-montrichard,8545","indicateur_qualite":2,"avis_patients":0,"nb_avis_patients":"0","capacite":99,"type_structure":"Etablissement de sante? prive? autorise? en SSR","depend_de":"\/annuaire-siege\/mgen-action-sanitaire-et-sociale,3220","telephone":"02 54 71 18 00","site_internet":"http:\/\/www.mgen.fr","adresse":"Chissay-en-Touraine BP30009 41401 Montrichard"},{"nom":"L'HOSPITALET  (MONTOIRE SUR LE LOIR)","latitude":"47.753468","longitude":"0.874957","lien":"\/annuaire-etablissement\/l-hospitalet-montoire-sur-le-loir,7330","indicateur_qualite":0,"avis_patients":0,"nb_avis_patients":0,"capacite":80,"type_structure":"Etablissement R\u00e9adaptation Fonctionnelle","depend_de":"\/annuaire-siege\/association-l-hospitalet,3113","telephone":"","site_internet":"http:\/\/www.centrehospitalet.com","adresse":"33 rue Pasteur  41800 MONTOIRE SUR LE LOIR"},{"nom":"USLD Maison de retraite Soins de longue dur\u00e9e  (ROMORANTIN-LANTHENAY)","latitude":"47.357910","longitude":"1.733866","lien":"\/annuaire-etablissement\/usld-maison-de-retraite-soins-de-longue-duree-romorantin-lanthenay,10657","indicateur_qualite":5,"avis_patients":0,"nb_avis_patients":"0","capacite":60,"type_structure":"Etablissement de Soins Longue Dur\u00e9e","depend_de":"\/annuaire-siege\/centre-hospitalier,988","telephone":"02 54 88 33 00","site_internet":"http:\/\/www.ch-romorantin.fr","adresse":"96 rue des Capucins  41200 ROMORANTIN-LANTHENAY"},{"nom":"Service de psychiatrie  (Vend\u00f4me)","latitude":"47.804043","longitude":"1.054993","lien":"\/annuaire-etablissement\/service-de-psychiatrie-vendome,1142","indicateur_qualite":5,"avis_patients":1,"nb_avis_patients":"1","capacite":40,"type_structure":"Centre Hospitalier","depend_de":"\/annuaire-siege\/centre-hospitalier,980","telephone":"02 54 23 33 33","site_internet":"http:\/\/www.ch-vendome.fr","adresse":"149  bd Roosevelt  41100 Vend\u00f4me"},{"nom":"Psychiatrie : h\u00f4pital de jour Les Iris (Vend\u00f4me)","latitude":"47.797287","longitude":"1.069473","lien":"\/annuaire-etablissement\/psychiatrie-hopital-de-jour-les-iris-vendome,1141","indicateur_qualite":5,"avis_patients":0,"nb_avis_patients":"0","capacite":20,"type_structure":"Centre Hospitalier","depend_de":"\/annuaire-siege\/centre-hospitalier,980","telephone":"02 54 23 33 33","site_internet":"http:\/\/www.ch-vendome.fr","adresse":"21  rue Saint Denis  41100 Vend\u00f4me"}]