[{"nom":"Centre hospitalier Responsable Patrick JULIEN  (Mende)","latitude":"44.531925","longitude":"3.490447","lien":"\/annuaire-etablissement\/centre-hospitalier-responsable-patrick-julien-mende,4977","indicateur_qualite":5,"avis_patients":3,"nb_avis_patients":"6","capacite":322,"type_structure":"Centre Hospitalier","depend_de":"\/annuaire-siege\/centre-hospitalier,1195","telephone":"04 66 49 49 49","site_internet":"http:\/\/www.ch-mende.fr","adresse":"Avenue du 8 Mai 1945  48000 Mende"},{"nom":"Centre Hospitalier  (Langogne)","latitude":"44.723995","longitude":"3.847090","lien":"\/annuaire-etablissement\/centre-hospitalier-langogne,4987","indicateur_qualite":4,"avis_patients":0,"nb_avis_patients":"0","capacite":140,"type_structure":"H\u00f4pital local","depend_de":"\/annuaire-siege\/centre-hospitalier,1205","telephone":"04 66 69 78 00","site_internet":"","adresse":"La Tuilerie  48300 Langogne"},{"nom":"CENTRE HOSPITALIER Fanny Ramadier (Saint-Ch\u00e9ly-d'Apcher)","latitude":"44.806522","longitude":"3.280634","lien":"\/annuaire-etablissement\/centre-hospitalier-fanny-ramadier-saint-chely-d-apcher,4982","indicateur_qualite":5,"avis_patients":0,"nb_avis_patients":"0","capacite":115,"type_structure":"H\u00f4pital local","depend_de":"\/annuaire-siege\/centre-hospitalier-fanny-ramadier,1200","telephone":"04 66 31 00 66","site_internet":"","adresse":"Route du Malzieu  48200 Saint-Ch\u00e9ly-d'Apcher"},{"nom":"centre hospitalier  (FLORAC TROIS RIVIERES)","latitude":"44.323917","longitude":"3.594024","lien":"\/annuaire-etablissement\/centre-hospitalier-florac-trois-rivieres,10679","indicateur_qualite":4,"avis_patients":0,"nb_avis_patients":"0","capacite":105,"type_structure":"H\u00f4pital local","depend_de":"\/annuaire-siege\/centre-hospitalier-theophile-roussel,1206","telephone":"04 66 49 63 00","site_internet":"","adresse":"FLORAC 6, place de l'ancienne gare 48400 FLORAC TROIS RIVIERES"},{"nom":"Centre Hospitalier Site G\u00e9vaudan (Marvejols)","latitude":"44.565369","longitude":"3.293133","lien":"\/annuaire-etablissement\/centre-hospitalier-site-gevaudan-marvejols,10863","indicateur_qualite":5,"avis_patients":0,"nb_avis_patients":"0","capacite":52,"type_structure":"Centre Hospitalier","depend_de":"\/annuaire-siege\/centre-hospitalier,1195","telephone":"04 66 49 52 00","site_internet":"http:\/\/www.ch-mende.fr","adresse":"Chemin Jean Fontugne  48100 Marvejols"},{"nom":"Centre Hospitalier de Proximit\u00e9 Marvejols  (Marvejols)","latitude":"44.550133","longitude":"3.289894","lien":"\/annuaire-etablissement\/centre-hospitalier-de-proximite-marvejols-marvejols,4978","indicateur_qualite":5,"avis_patients":0,"nb_avis_patients":"0","capacite":40,"type_structure":"H\u00f4pital local","depend_de":"\/annuaire-siege\/centre-hospitalier-de-proximite-marvejols,1196","telephone":"04 66 49 52 00","site_internet":"","adresse":"Marvejols Chemin Jean Fontugne 48100 Marvejols"},{"nom":"Unit\u00e9 de soins de longue dur\u00e9e Responsable Stephanie Maurin (MENDE)","latitude":"44.531925","longitude":"3.490447","lien":"\/annuaire-etablissement\/unite-de-soins-de-longue-duree-responsable-stephanie-maurin-mende,8405","indicateur_qualite":5,"avis_patients":0,"nb_avis_patients":"0","capacite":30,"type_structure":"Etablissement de Soins Longue Dur\u00e9e","depend_de":"\/annuaire-siege\/centre-hospitalier,1195","telephone":"04 66 49 47 63","site_internet":"http:\/\/www.ch-mende.fr","adresse":"avenue du 8 mai 1945 BP 10 48001 MENDE"}]