[{"nom":"H\u00f4pital Robert Debre (Reims)","latitude":"49.226494","longitude":"4.023539","lien":"\/annuaire-etablissement\/hopital-robert-debre-reims,1252","indicateur_qualite":5,"avis_patients":3,"nb_avis_patients":"45","capacite":638,"type_structure":"H\u00f4pital d\u00e9pendant d'un CHRU","depend_de":"\/annuaire-siege\/centre-hospitalier-universitaire-de-reims,1310","telephone":"03 26 78 78 78","site_internet":"http:\/\/www.chu-reims.fr","adresse":"rue du General Koenig  51090 Reims"},{"nom":"H\u00f4pital Maison Blanche (Reims)","latitude":"49.231056","longitude":"4.017229","lien":"\/annuaire-etablissement\/hopital-maison-blanche-reims,1251","indicateur_qualite":5,"avis_patients":3,"nb_avis_patients":"46","capacite":449,"type_structure":"H\u00f4pital d\u00e9pendant d'un CHRU","depend_de":"\/annuaire-siege\/centre-hospitalier-universitaire-de-reims,1310","telephone":"03 26 78 78 78","site_internet":"http:\/\/www.chu-reims.fr","adresse":"45  Rue Cognacq Jay  51092 Reims"},{"nom":"Centre hospitalier  (Chalons-en-Champagne)","latitude":"48.971233","longitude":"4.369857","lien":"\/annuaire-etablissement\/centre-hospitalier-chalons-en-champagne,5083","indicateur_qualite":4,"avis_patients":3,"nb_avis_patients":"9","capacite":352,"type_structure":"Centre Hospitalier","depend_de":"\/annuaire-siege\/centre-hospitalier,1308","telephone":"03 26 69 60 60","site_internet":"http:\/\/www.ch-chalonsenchampagne.fr","adresse":"51, rue du Commandant Derrien BP 501 51005 Chalons-en-Champagne"},{"nom":"H\u00f4pital Sebastopol (Reims)","latitude":"49.264717","longitude":"4.047620","lien":"\/annuaire-etablissement\/hopital-sebastopol-reims,1253","indicateur_qualite":5,"avis_patients":0,"nb_avis_patients":"0","capacite":244,"type_structure":"H\u00f4pital d\u00e9pendant d'un CHRU","depend_de":"\/annuaire-siege\/centre-hospitalier-universitaire-de-reims,1310","telephone":"03 26 78 78 78","site_internet":"http:\/\/www.chu-reims.fr","adresse":"48  Rue de Sebastopol  51090 Reims"},{"nom":"CENTRE HOSPITALIER  (Fismes)","latitude":"49.306309","longitude":"3.678706","lien":"\/annuaire-etablissement\/centre-hospitalier-fismes,5089","indicateur_qualite":3,"avis_patients":0,"nb_avis_patients":"0","capacite":228,"type_structure":"Centre Hospitalier","depend_de":"\/annuaire-siege\/centre-hospitalier,1315","telephone":"03 26 48 95 95","site_internet":"","adresse":"12, rue des Chailleaux  51170 Fismes"},{"nom":"Centre hospitalier  (Sainte-Menehould)","latitude":"49.092861","longitude":"4.907441","lien":"\/annuaire-etablissement\/centre-hospitalier-sainte-menehould,5098","indicateur_qualite":4,"avis_patients":0,"nb_avis_patients":"0","capacite":226,"type_structure":"Centre Hospitalier","depend_de":"\/annuaire-siege\/centre-hospitalier,1324","telephone":"03 26 60 81 41","site_internet":"http:\/\/www.ch-saintemenehould.fr","adresse":"All\u00e9e de la Cour d'Honneur Cit\u00e9 Valmy 51801 Sainte-Menehould"},{"nom":"Centre Hospitalier-Maison de retraite R\u00e9my Petit-Lemercier (Montmirail)","latitude":"48.870167","longitude":"3.535925","lien":"\/annuaire-etablissement\/centre-hospitalier-maison-de-retraite-remy-petit-lemercier-montmirail,5092","indicateur_qualite":5,"avis_patients":0,"nb_avis_patients":"0","capacite":200,"type_structure":"H\u00f4pital local","depend_de":"\/annuaire-siege\/hopital-maison-de-retraite-remy-petit-lemercier,1318","telephone":"03 26 81 20 36","site_internet":"","adresse":"3 rue de la Troisi\u00e8me Avenue BP 104 51210 Montmirail"},{"nom":"Site hospitalier  (S\u00e9zanne)","latitude":"48.722527","longitude":"3.727460","lien":"\/annuaire-etablissement\/site-hospitalier-sezanne,5086","indicateur_qualite":4,"avis_patients":1,"nb_avis_patients":"17","capacite":194,"type_structure":"Centre Hospitalier","depend_de":"\/annuaire-siege\/groupement-hospitalier-aube-marne-gham-hopital-maurice-camuset,216","telephone":"03 26 81 79 79","site_internet":"http:\/\/www.gham.fr","adresse":"16, rue des Recollets BP 102 51120 S\u00e9zanne"},{"nom":"AUBAN-MO\u00cbT Centre Hospitalier Epernay  (EPERNAY)","latitude":"49.031387","longitude":"3.955121","lien":"\/annuaire-etablissement\/auban-moet-centre-hospitalier-epernay-epernay,5091","indicateur_qualite":5,"avis_patients":2,"nb_avis_patients":"33","capacite":172,"type_structure":"Centre Hospitalier","depend_de":"\/annuaire-siege\/auban-moet-centre-hospitalier-epernay,1317","telephone":"03 26 58 70 00","site_internet":"","adresse":"137, rue de l'H\u00f4pital Auban-Mo\u00ebt BP 137 51205 EPERNAY"},{"nom":"American Memorial Hospital  (Reims)","latitude":"49.230579","longitude":"4.016126","lien":"\/annuaire-etablissement\/american-memorial-hospital-reims,1248","indicateur_qualite":5,"avis_patients":3,"nb_avis_patients":"7","capacite":119,"type_structure":"H\u00f4pital d\u00e9pendant d'un CHRU","depend_de":"\/annuaire-siege\/centre-hospitalier-universitaire-de-reims,1310","telephone":"03 26 78 78 78","site_internet":"http:\/\/www.chu-reims.fr","adresse":"47  Rue Cognacq Jay  51090 Reims"},{"nom":"Centre hospitalier  (VITRY LE FRANCOIS)","latitude":"48.716736","longitude":"4.597618","lien":"\/annuaire-etablissement\/centre-hospitalier-vitry-le-francois,5095","indicateur_qualite":4,"avis_patients":4,"nb_avis_patients":"5","capacite":113,"type_structure":"Centre Hospitalier","depend_de":"\/annuaire-siege\/centre-hospitalier,1321","telephone":"03 26 73 60 60","site_internet":"http:\/\/www.ch-vitrylefrancois.fr","adresse":"2, rue Charles Simon BP 413 51308 VITRY LE FRANCOIS"},{"nom":"Institut de Canc\u00e9rologie Jean Godinot  (Reims)","latitude":"49.226700","longitude":"4.024149","lien":"\/annuaire-etablissement\/institut-de-cancerologie-jean-godinot-reims,6543","indicateur_qualite":4,"avis_patients":0,"nb_avis_patients":0,"capacite":73,"type_structure":"Centre de Lutte Contre Cancer","depend_de":"\/annuaire-siege\/institut-jean-godinot,3003","telephone":"03 26 50 44 44","site_internet":"http:\/\/www.institutjeangodinot.fr","adresse":"1, rue du G\u00e9n\u00e9ral Koenig CS 80014 51726 Reims"},{"nom":"Unit\u00e9 de soins de longue dur\u00e9e  (EPERNAY)","latitude":"49.032326","longitude":"3.953431","lien":"\/annuaire-etablissement\/unite-de-soins-de-longue-duree-epernay,9894","indicateur_qualite":5,"avis_patients":0,"nb_avis_patients":"0","capacite":30,"type_structure":"Etablissement de Soins Longue Dur\u00e9e","depend_de":"\/annuaire-siege\/auban-moet-centre-hospitalier-epernay,1317","telephone":"03 26 58 70 00","site_internet":"","adresse":"137 rue de l'H\u00f4pital AUBAN-MO\u00cbT  51205 EPERNAY"},{"nom":"HAD  (EPERNAY)","latitude":"49.032326","longitude":"3.953431","lien":"\/annuaire-etablissement\/had-epernay,9897","indicateur_qualite":5,"avis_patients":0,"nb_avis_patients":"0","capacite":0,"type_structure":"Centre Hospitalier","depend_de":"\/annuaire-siege\/auban-moet-centre-hospitalier-epernay,1317","telephone":"03 26 58 70 00","site_internet":"","adresse":"137 rue de l'H\u00f4pital AUBAN-MO\u00cbT  51205 EPERNAY"},{"nom":"HAD de Reims (REIMS)","latitude":"49.256603","longitude":"4.033091","lien":"\/annuaire-etablissement\/had-de-reims-reims,9596","indicateur_qualite":0,"avis_patients":0,"nb_avis_patients":0,"capacite":0,"type_structure":"Hospitalisation \u00e0 Domicile","depend_de":"\/annuaire-siege\/croix-rouge-francaise,3243","telephone":"03 26 47 55 09","site_internet":"http:\/\/www.croix-rouge.fr","adresse":"26 rue Houzon Muiron  51100 REIMS"}]