[{"nom":"Centre hospitalier Centre hospitalier d'Auxerre (Auxerre)","latitude":"47.806023","longitude":"3.556576","lien":"\/annuaire-etablissement\/centre-hospitalier-centre-hospitalier-d-auxerre-auxerre,6170","indicateur_qualite":4,"avis_patients":2,"nb_avis_patients":"31","capacite":542,"type_structure":"Centre Hospitalier","depend_de":"\/annuaire-siege\/centre-hospitalier-centre-hospitalier-d-auxerre,2462","telephone":"03 86 48 48 48","site_internet":"http:\/\/www.gcs-syhn.fr","adresse":"2, boulevard de Verdun BP 69 89011 Auxerre"},{"nom":"Hopital Gaston Ramon  (Sens)","latitude":"48.191422","longitude":"3.298973","lien":"\/annuaire-etablissement\/hopital-gaston-ramon-sens,6172","indicateur_qualite":5,"avis_patients":3,"nb_avis_patients":"25","capacite":322,"type_structure":"Centre Hospitalier","depend_de":"\/annuaire-siege\/centre-hospitalier-de-sens,2465","telephone":"03 86 86 15 15","site_internet":"http:\/\/www.ch-sens.fr","adresse":"1, avenue Pierre de Coubertin BP 808 89108 Sens"},{"nom":"Centre hospitalier  (Tonnerre)","latitude":"47.854088","longitude":"3.980770","lien":"\/annuaire-etablissement\/centre-hospitalier-tonnerre,6198","indicateur_qualite":4,"avis_patients":3,"nb_avis_patients":"5","capacite":148,"type_structure":"Centre Hospitalier","depend_de":"\/annuaire-siege\/centre-hospitalier-du-tonnerrois,2494","telephone":"03 86 54 33 00","site_internet":"http:\/\/www.gcs-syhn.fr","adresse":"Chemin des Jumeriaux  89700 Tonnerre"},{"nom":"CENTRE HOSPITALIER  (JOIGNY)","latitude":"47.979595","longitude":"3.397033","lien":"\/annuaire-etablissement\/centre-hospitalier-joigny,6183","indicateur_qualite":4,"avis_patients":1,"nb_avis_patients":"4","capacite":104,"type_structure":"Centre Hospitalier","depend_de":"\/annuaire-siege\/centre-hospitalier,2477","telephone":"03 86 92 33 33","site_internet":"http:\/\/www.ch-joigny.com","adresse":"3 quai de l'h\u00f4pital BP 229 89306 JOIGNY"},{"nom":"CENTRE HOSPITALIER  (AVALLON)","latitude":"47.490032","longitude":"3.905272","lien":"\/annuaire-etablissement\/centre-hospitalier-avallon,6392","indicateur_qualite":4,"avis_patients":2,"nb_avis_patients":"2","capacite":103,"type_structure":"Centre Hospitalier","depend_de":"\/annuaire-siege\/centre-hospitalier,2826","telephone":"03 86 34 66 00","site_internet":"","adresse":"1 rue de l'H\u00f4pital BP 197 89206 AVALLON"},{"nom":"USSR de Migennes (MIGENNES)","latitude":"47.963722","longitude":"3.511149","lien":"\/annuaire-etablissement\/ussr-de-migennes-migennes,7321","indicateur_qualite":5,"avis_patients":0,"nb_avis_patients":0,"capacite":45,"type_structure":"Etablissement de Soins Pluridisciplinaire","depend_de":"\/annuaire-siege\/croix-rouge-francaise,3243","telephone":"03 86 92 38 48","site_internet":"http:\/\/www.croix-rouge.fr","adresse":"82 avenue Jean Jaur\u00e8s  89400 MIGENNES"},{"nom":"Centre Hospitalier Roland Bonnion  (Villeneuve-sur-Yonne)","latitude":"48.083500","longitude":"3.294866","lien":"\/annuaire-etablissement\/centre-hospitalier-roland-bonnion-villeneuve-sur-yonne,6191","indicateur_qualite":5,"avis_patients":2,"nb_avis_patients":"1","capacite":26,"type_structure":"H\u00f4pital local","depend_de":"\/annuaire-siege\/centre-hospitalier-roland-bonnion,2487","telephone":"03 86 87 19 67","site_internet":"http:\/\/www.hl-villeneuve.fr","adresse":"87-89, rue Carnot BP 92 89500 Villeneuve-sur-Yonne"},{"nom":"foyer des boisseaux soins de suite et de r\u00e9adaptation psychiatrique (mon\u00e9teau)","latitude":"47.838009","longitude":"3.571598","lien":"\/annuaire-etablissement\/foyer-des-boisseaux-soins-de-suite-et-de-readaptation-psychiatrique-moneteau,7340","indicateur_qualite":0,"avis_patients":0,"nb_avis_patients":0,"capacite":25,"type_structure":"Etablissement de Convalescence et de Repos","depend_de":"\/annuaire-siege\/asso.-foyer-residence-des-boisseaux-foyer-des-boisseaux,3277","telephone":"03 86 40 61 55","site_internet":"","adresse":"7 route des conches  89470 mon\u00e9teau"}]